City_ID,City,Country,Lat,Lng,Max Temp,Humidity,Cloudiness,Wind Speed,current Description
0,Boueni,YT,-12.9025,45.0761,76.98,71,14,8.28,few clouds
1,Yzeure,FR,46.5644,3.355,39.29,84,83,9.64,broken clouds
2,Chifeng,CN,42.2683,118.9636,29.19,47,85,4.36,overcast clouds
3,Port Elizabeth,ZA,-33.918,25.5701,71.78,87,40,8.21,scattered clouds
4,Bambous Virieux,MU,-20.3428,57.7575,79.05,69,40,6.91,scattered clouds
5,Zhezkazgan,KZ,47.8043,67.7144,22.12,63,100,14.27,overcast clouds
6,Ahipara,NZ,-35.1667,173.1667,63.01,97,72,4.29,broken clouds
7,Strezhevoy,RU,60.7333,77.5889,21.18,77,100,12.8,overcast clouds
8,Ushuaia,AR,-54.8,-68.3,55.06,62,40,13.8,scattered clouds
9,Kaitangata,NZ,-46.2817,169.8464,50.4,85,100,4.03,light rain
10,Semenivka,UA,52.1783,32.5818,37.6,98,100,18.45,overcast clouds
11,Chippenham,GB,51.46,-2.1247,44.33,82,11,12.48,few clouds
12,Atuona,PF,-9.8,-139.0333,77.94,73,49,15.08,scattered clouds
13,Talnakh,RU,69.4865,88.3972,-28.75,98,82,7.94,broken clouds
14,Komsomolskiy,UZ,40.4272,71.7189,36.82,74,54,4.61,mist
15,Vaini,TO,-21.2,-175.2,75.36,94,20,5.75,few clouds
16,Cherskiy,RU,68.75,161.3,-42.56,97,99,4.81,overcast clouds
17,Rikitea,PF,-23.1203,-134.9692,76.03,73,98,18.16,overcast clouds
18,Georgetown,MY,5.4112,100.3354,79.9,88,20,1.01,few clouds
19,Kapaa,US,22.0752,-159.319,75.52,77,75,1.01,light rain
20,Barrow,US,71.2906,-156.7887,-2.18,84,90,5.75,overcast clouds
21,Itaguai,BR,-22.8522,-43.7753,80.58,66,41,9.17,scattered clouds
22,Fortuna,US,40.5982,-124.1573,41.36,60,1,4.61,clear sky
23,Tuatapere,NZ,-46.1333,167.6833,46.74,91,100,2.84,overcast clouds
24,Hilo,US,19.7297,-155.09,71.62,83,75,4.61,broken clouds
25,Dejen,ET,10.1667,38.1333,55.69,12,1,6.04,clear sky
26,Bluff,NZ,-46.6,168.3333,53.35,79,100,9.33,overcast clouds
27,Tsurib,RU,42.2368,46.8307,31.93,73,44,8.34,scattered clouds
28,Edson,CA,53.5835,-116.4356,13.98,79,62,4.72,broken clouds
29,Khatanga,RU,71.9667,102.5,-33.72,100,100,4.92,overcast clouds
30,Whitehorse,CA,60.7161,-135.0538,5.09,96,91,6.46,overcast clouds
31,Busselton,AU,-33.65,115.3333,58.08,86,5,4.99,clear sky
32,Sistranda,NO,63.7256,8.834,33.91,66,4,8.41,clear sky
33,Saldanha,ZA,-33.0117,17.9442,63.99,91,55,11.52,broken clouds
34,Babu,CN,24.4167,111.5167,61.29,72,16,1.59,few clouds
35,Severo-Kurilsk,RU,50.6789,156.125,32.85,83,11,1.48,few clouds
36,Thompson,CA,55.7435,-97.8558,0.72,89,20,7.34,few clouds
37,Voyskovitsy,RU,59.5287,29.964,10.94,85,94,11.16,overcast clouds
38,Puerto Ayora,EC,-0.7393,-90.3518,76.96,90,90,5.01,overcast clouds
39,Hermanus,ZA,-34.4187,19.2345,69.91,85,54,10.33,broken clouds
40,Albany,US,42.6001,-73.9662,42.8,66,99,1.01,overcast clouds
41,Hobart,AU,-42.8794,147.3294,51.66,87,90,1.99,overcast clouds
42,Hasaki,JP,35.7333,140.8333,36.0,69,19,9.26,few clouds
43,Grand Gaube,MU,-20.0064,57.6608,79.2,70,100,5.01,overcast clouds
44,Boueni,YT,-12.9025,45.0761,76.98,71,14,8.28,few clouds
45,Yzeure,FR,46.5644,3.355,39.29,84,83,9.64,broken clouds
46,Chifeng,CN,42.2683,118.9636,29.19,47,85,4.36,overcast clouds
47,Port Elizabeth,ZA,-33.918,25.5701,71.78,87,40,8.21,scattered clouds
48,Bambous Virieux,MU,-20.3428,57.7575,79.05,69,40,6.91,scattered clouds
49,Zhezkazgan,KZ,47.8043,67.7144,22.12,63,100,14.27,overcast clouds
50,Ahipara,NZ,-35.1667,173.1667,63.01,97,72,4.29,broken clouds
51,Strezhevoy,RU,60.7333,77.5889,21.18,77,100,12.8,overcast clouds
52,Ushuaia,AR,-54.8,-68.3,55.06,62,40,13.8,scattered clouds
53,Kaitangata,NZ,-46.2817,169.8464,50.4,85,100,4.03,light rain
54,Semenivka,UA,52.1783,32.5818,37.6,98,100,18.45,overcast clouds
55,Chippenham,GB,51.46,-2.1247,44.33,82,11,12.48,few clouds
56,Atuona,PF,-9.8,-139.0333,77.94,73,49,15.08,scattered clouds
57,Talnakh,RU,69.4865,88.3972,-28.75,98,82,7.94,broken clouds
58,Komsomolskiy,UZ,40.4272,71.7189,36.82,74,54,4.61,mist
59,Vaini,TO,-21.2,-175.2,75.36,94,20,5.75,few clouds
60,Cherskiy,RU,68.75,161.3,-42.56,97,99,4.81,overcast clouds
61,Rikitea,PF,-23.1203,-134.9692,76.03,73,98,18.16,overcast clouds
62,Georgetown,MY,5.4112,100.3354,79.9,88,20,1.01,few clouds
63,Kapaa,US,22.0752,-159.319,75.52,77,75,1.01,light rain
64,Barrow,US,71.2906,-156.7887,-2.18,84,90,5.75,overcast clouds
65,Itaguai,BR,-22.8522,-43.7753,80.58,66,41,9.17,scattered clouds
66,Fortuna,US,40.5982,-124.1573,41.36,60,1,4.61,clear sky
67,Tuatapere,NZ,-46.1333,167.6833,46.74,91,100,2.84,overcast clouds
68,Hilo,US,19.7297,-155.09,71.62,83,75,4.61,broken clouds
69,Dejen,ET,10.1667,38.1333,55.69,12,1,6.04,clear sky
70,Bluff,NZ,-46.6,168.3333,53.35,79,100,9.33,overcast clouds
71,Tsurib,RU,42.2368,46.8307,31.93,73,44,8.34,scattered clouds
72,Edson,CA,53.5835,-116.4356,13.98,79,62,4.72,broken clouds
73,Khatanga,RU,71.9667,102.5,-33.72,100,100,4.92,overcast clouds
74,Whitehorse,CA,60.7161,-135.0538,5.09,96,91,6.46,overcast clouds
75,Busselton,AU,-33.65,115.3333,58.08,86,5,4.99,clear sky
76,Sistranda,NO,63.7256,8.834,33.91,66,4,8.41,clear sky
77,Saldanha,ZA,-33.0117,17.9442,63.99,91,55,11.52,broken clouds
78,Babu,CN,24.4167,111.5167,61.29,72,16,1.59,few clouds
79,Severo-Kurilsk,RU,50.6789,156.125,32.85,83,11,1.48,few clouds
80,Thompson,CA,55.7435,-97.8558,0.72,89,20,7.34,few clouds
81,Voyskovitsy,RU,59.5287,29.964,10.94,85,94,11.16,overcast clouds
82,Puerto Ayora,EC,-0.7393,-90.3518,76.96,90,90,5.01,overcast clouds
83,Hermanus,ZA,-34.4187,19.2345,69.91,85,54,10.33,broken clouds
84,Albany,US,42.6001,-73.9662,42.8,66,99,1.01,overcast clouds
85,Hobart,AU,-42.8794,147.3294,51.66,87,90,1.99,overcast clouds
86,Hasaki,JP,35.7333,140.8333,36.0,69,19,9.26,few clouds
87,Grand Gaube,MU,-20.0064,57.6608,79.2,70,100,5.01,overcast clouds
88,Avarua,CK,-21.2078,-159.775,73.45,94,90,3.44,overcast clouds
89,Camana,PE,-16.6228,-72.7111,71.35,70,15,8.75,few clouds
90,Saskylakh,RU,71.9167,114.0833,-11.96,97,100,8.55,overcast clouds
91,Muros,ES,42.7762,-9.0603,56.23,79,86,6.71,overcast clouds
92,North Bend,US,43.4065,-124.2243,43.88,100,90,9.22,overcast clouds
93,Mahon,ES,39.8885,4.2658,52.36,93,75,4.61,broken clouds
94,Kunming,CN,25.0389,102.7183,49.93,87,0,15.66,clear sky
95,Ziarat,PK,30.3823,67.7282,37.45,14,20,5.08,few clouds
96,Kapoeta,SS,4.7717,33.5903,88.11,28,98,16.46,overcast clouds
97,Kampot,KH,10.6167,104.1833,68.05,67,78,5.48,broken clouds
98,Mahebourg,MU,-20.4081,57.7,79.09,69,40,6.91,scattered clouds
99,Atambua,ID,-9.1061,124.8925,75.56,85,100,3.11,overcast clouds
100,Porto Novo,BJ,6.4965,2.6036,85.82,64,60,9.28,broken clouds
101,Kavieng,PG,-2.5744,150.7967,82.63,79,100,11.25,moderate rain
102,Gamba,GA,-2.65,10.0,79.29,86,100,5.26,light rain
103,Mataura,NZ,-46.1927,168.8643,46.47,98,100,1.16,overcast clouds
104,Port Alfred,ZA,-33.5906,26.891,74.59,84,54,15.57,broken clouds
105,Lagoa,PT,39.05,-27.9833,63.66,75,10,11.32,clear sky
106,Krasnoshchekovo,RU,51.6708,82.7289,4.01,91,42,3.83,scattered clouds
107,Jamestown,US,42.097,-79.2353,47.3,65,75,6.58,broken clouds
108,Gat,IL,31.61,34.7642,68.77,40,90,1.74,overcast clouds
109,Castro,BR,-24.7911,-50.0119,78.19,36,0,5.32,clear sky
110,Nichinan,JP,31.6,131.3667,52.75,84,1,4.23,clear sky
111,Cape Town,ZA,-33.9258,18.4232,72.09,56,20,5.01,few clouds
112,Johnstown,US,40.3267,-78.922,57.45,68,1,4.61,clear sky
113,Bethel,US,41.3712,-73.414,51.49,70,90,1.99,overcast clouds
114,Matagami,CA,49.7502,-77.6328,21.31,86,90,11.5,light snow
115,Punta Arenas,CL,-53.15,-70.9167,62.71,36,0,11.5,clear sky
116,New Norfolk,AU,-42.7826,147.0587,51.3,76,57,1.77,broken clouds
117,Honningsvag,NO,70.9821,25.9704,29.95,69,0,18.41,clear sky
118,Hualmay,PE,-11.0964,-77.6139,71.6,76,99,9.55,overcast clouds
119,Esperance,AU,-33.8667,121.9,63.07,85,2,12.82,clear sky
120,Curuca,BR,-0.7289,-47.8481,81.86,86,88,7.16,overcast clouds
121,Cartagena Del Chaira,CO,1.3349,-74.8429,92.48,40,51,7.05,broken clouds
122,Micheweni,TZ,-4.9667,39.8333,79.27,80,2,8.08,light rain
123,Aklavik,CA,68.2191,-135.0107,-1.37,77,40,5.75,scattered clouds
124,Takoradi,GH,4.8845,-1.7554,82.45,73,92,10.49,overcast clouds
125,Muli,MV,2.9167,73.5667,82.02,78,97,14.74,overcast clouds
126,Tahe,CN,52.3333,124.7333,7.79,97,100,2.26,overcast clouds
127,Cabedelo,BR,-6.9811,-34.8339,84.87,68,89,13.13,overcast clouds
128,Nuuk,GL,64.1835,-51.7216,23.61,80,40,12.66,scattered clouds
129,Assiniboia,CA,49.6334,-105.9845,19.31,52,18,4.61,few clouds
130,Riyadh,SA,24.6877,46.7219,60.94,30,11,9.15,few clouds
131,Genhe,CN,50.7833,121.5167,4.06,99,98,2.37,overcast clouds
132,Ndele,CF,8.4109,20.6473,83.19,17,42,5.44,scattered clouds
133,Dikson,RU,73.5069,80.5464,-23.55,89,90,4.63,overcast clouds
134,Wanning,CN,18.8003,110.3967,70.43,78,86,4.76,overcast clouds
135,Nikolskoye,RU,59.7035,30.7861,11.8,81,82,10.51,broken clouds
136,Taoudenni,ML,22.6783,-3.9836,73.42,17,100,14.5,overcast clouds
137,Ossora,RU,59.2353,163.0719,3.47,90,100,7.63,overcast clouds
138,Cavalcante,BR,-13.7975,-47.4583,79.2,72,95,4.56,overcast clouds
139,Mnogovershinnyy,RU,53.9353,139.9242,19.09,97,100,3.62,light snow
140,Beidao,CN,34.5686,105.8933,39.47,93,100,2.98,moderate rain
141,Saint-Philippe,RE,-21.3585,55.7679,78.39,73,84,11.92,broken clouds
142,Tasiilaq,GL,65.6145,-37.6368,32.16,94,100,24.11,snow
143,Ribeira Grande,PT,38.5167,-28.7,64.8,82,40,11.5,scattered clouds
144,Gushi,CN,34.6425,109.5843,43.93,82,100,2.66,overcast clouds
145,Suntar,RU,62.1444,117.6319,-0.22,97,100,4.61,overcast clouds
146,Kholodnyy,RU,62.7167,147.95,-46.62,99,64,0.16,broken clouds
147,Ponta Do Sol,PT,32.6667,-17.1,68.0,65,13,8.66,few clouds
148,Mar Del Plata,AR,-38.0023,-57.5575,66.87,88,100,21.0,overcast clouds
149,Hazorasp,UZ,41.3194,61.0742,48.04,74,92,11.81,overcast clouds
150,East London,ZA,-33.0153,27.9116,77.94,73,0,11.5,light rain
151,Verkhnyaya Inta,RU,65.9811,60.3094,5.58,95,100,15.9,light snow
152,Mayo,US,38.8876,-76.5119,53.74,64,40,1.01,scattered clouds
153,Tuktoyaktuk,CA,69.4541,-133.0374,-7.28,97,13,8.34,few clouds
154,Arraial Do Cabo,BR,-22.9661,-42.0278,78.66,65,20,13.8,few clouds
155,San Cristobal,VE,7.7669,-72.225,71.78,62,83,1.12,broken clouds
156,Roald,NO,62.5833,6.1333,37.54,56,0,13.8,clear sky
157,San Angelo,US,31.4638,-100.437,80.98,40,1,1.99,clear sky
158,Itarema,BR,-2.9248,-39.9167,87.42,58,97,15.39,overcast clouds
159,Havre-Saint-Pierre,CA,50.2334,-63.5986,19.99,48,1,6.91,clear sky
160,Chuy,UY,-33.6971,-53.4616,73.02,53,19,12.19,few clouds
161,Prince Rupert,CA,54.3161,-130.3201,39.29,93,90,17.27,moderate rain
162,Mamontovo,RU,52.7055,81.6244,7.83,87,92,6.85,overcast clouds
163,Provideniya,RU,64.3833,-173.3,-8.32,91,22,10.8,few clouds
164,Fairbanks,US,64.8378,-147.7164,15.76,82,90,5.75,light snow
165,Guerrero Negro,MX,27.9769,-114.0611,64.71,68,36,14.54,scattered clouds
166,Krasnyy Yar,RU,46.5331,48.3456,35.53,77,100,12.93,overcast clouds
167,Porbandar,IN,21.6422,69.6093,75.04,52,0,14.54,clear sky
168,Vardo,NO,70.3705,31.1107,24.78,86,75,25.32,broken clouds
169,Spirit River,CA,55.7833,-118.8361,25.75,69,70,11.41,broken clouds
170,Pisco,PE,-13.7,-76.2167,72.01,78,75,6.91,broken clouds
171,Port Lavaca,US,28.615,-96.6261,81.99,86,90,19.57,overcast clouds
172,Isetskoye,RU,56.4858,65.3226,19.51,80,100,8.61,overcast clouds
173,Klaksvik,FO,62.2266,-6.589,36.52,71,69,19.42,broken clouds
174,Dubbo,AU,-32.25,148.6167,51.93,93,22,4.61,few clouds
175,Saint Anthony,US,45.0205,-93.218,31.24,82,90,1.01,light snow
176,Yellowknife,CA,62.456,-114.3525,-7.71,96,79,2.53,broken clouds
177,Esperantina,BR,-3.9017,-42.2336,93.13,43,86,3.44,overcast clouds
178,San Julian,MX,21.0167,-102.1667,67.01,22,100,3.51,overcast clouds
179,Teguldet,RU,57.3064,88.1667,7.09,93,100,8.28,overcast clouds
180,Lowestoft,GB,52.4752,1.7516,42.17,82,100,21.72,overcast clouds
181,Panguna,PG,-6.3164,155.4848,70.16,95,100,0.83,light rain
182,Calatayud,ES,41.3535,-1.6432,63.18,74,93,11.05,overcast clouds
183,Mount Gambier,AU,-37.8333,140.7667,50.65,77,71,7.99,broken clouds
184,Kununurra,AU,-15.7667,128.7333,80.58,83,97,4.61,overcast clouds
185,Vostok,RU,46.4856,135.8833,27.79,99,100,2.93,light snow
186,Bredasdorp,ZA,-34.5322,20.0403,63.28,68,80,8.59,broken clouds
187,Shakhovskaya,RU,56.0283,35.5097,10.96,85,12,10.87,few clouds
188,Luderitz,NA,-26.6481,15.1594,66.7,73,0,16.17,clear sky
189,Constitucion,CL,-35.3333,-72.4167,64.38,74,52,12.64,broken clouds
190,Chokurdakh,RU,70.6333,147.9167,-47.33,100,68,3.49,broken clouds
191,Shizilu,CN,35.1711,118.8289,43.66,68,100,3.98,overcast clouds
192,Lufilufi,WS,-13.8745,-171.5986,73.18,70,100,12.8,overcast clouds
193,Luan,CH,46.3592,6.9759,32.65,90,100,3.0,light snow
194,Dunmore East,IE,52.1514,-6.9861,42.24,80,0,5.75,clear sky
195,Price,US,39.5994,-110.8107,26.11,50,1,16.11,clear sky
196,Hami,CN,42.8,93.45,25.92,45,16,6.76,few clouds
197,Souillac,MU,-20.5167,57.5167,79.18,69,40,6.91,scattered clouds
198,Buchanan,LR,5.8808,-10.0467,87.76,74,64,10.63,light rain
199,Tukrah,LY,32.5341,20.5791,61.38,53,87,8.79,overcast clouds
200,Fort Nelson,CA,58.8053,-122.7002,-4.41,84,75,3.44,broken clouds
201,Bonavista,CA,48.6499,-53.1147,28.11,71,96,21.77,overcast clouds
202,Jasper,US,37.2001,-94.3502,68.34,73,20,7.0,few clouds
203,Araouane,ML,18.9048,-3.5265,78.82,8,100,9.44,overcast clouds
204,Brae,GB,60.3964,-1.353,40.91,86,100,9.71,overcast clouds
205,Lishan,CN,31.8576,113.2951,51.12,70,100,11.48,overcast clouds
206,Marsala,IT,37.7966,12.4352,57.99,94,40,24.16,scattered clouds
207,Dumas,US,35.8656,-101.9732,65.66,33,75,40.29,haze
208,Tilichiki,RU,60.4667,166.1,-15.52,88,64,10.27,broken clouds
209,Manaure,CO,11.7751,-72.4445,86.32,58,62,17.25,broken clouds
210,Ilhabela,BR,-23.7781,-45.3581,75.11,69,14,4.47,few clouds
211,Bengkulu,ID,-3.8004,102.2655,74.57,93,99,4.07,overcast clouds
212,Cayenne,GF,4.9333,-52.3333,82.44,89,75,4.61,broken clouds
213,Long Xuyen,VN,10.3833,105.4167,73.35,77,98,0.25,overcast clouds
214,Mokhsogollokh,RU,61.4681,128.9203,-8.0,100,99,1.23,overcast clouds
215,Hamilton,US,39.1834,-84.5333,57.04,84,90,1.01,overcast clouds
216,Luganville,VU,-15.5333,167.1667,79.36,86,78,2.98,broken clouds
217,Nemuro,JP,43.3236,145.575,39.09,78,54,3.74,broken clouds
218,Orel-Izumrud,RU,43.4583,39.9244,46.42,87,0,6.71,clear sky
219,Tautira,PF,-17.7333,-149.15,80.62,64,85,13.91,overcast clouds
220,Newtownards,GB,54.5924,-5.6909,40.95,85,57,3.0,broken clouds
221,Sao Joao Da Barra,BR,-21.6403,-41.0511,82.49,73,19,8.52,few clouds
222,Inirida,CO,3.8653,-67.9239,89.92,59,47,3.04,scattered clouds
223,Upernavik,GL,72.7868,-56.1549,-0.27,86,87,6.17,overcast clouds
224,Gondanglegi,ID,-7.7479,112.0132,76.53,91,100,6.85,overcast clouds
225,Kanniyakumari,IN,8.0833,77.5667,79.79,77,73,16.22,broken clouds
226,Wakkanai,JP,45.4094,141.6739,46.2,75,100,17.16,overcast clouds
227,Tabou,CI,4.423,-7.3528,83.61,69,27,8.08,scattered clouds
228,Les Escoumins,CA,48.1111,-69.0236,13.35,73,100,10.92,overcast clouds
229,Dhidhdhoo,MV,6.8833,73.1,82.47,73,67,4.47,broken clouds
230,Laguna,US,38.421,-121.4238,49.33,81,1,1.01,clear sky
231,Narsaq,GL,60.9167,-46.05,34.02,59,100,12.95,overcast clouds
232,Avera,US,33.194,-82.5271,54.91,93,99,4.88,overcast clouds
233,Cidreira,BR,-30.1811,-50.2056,71.19,54,20,8.75,few clouds
234,Warrnambool,AU,-38.3833,142.4833,55.81,69,100,12.01,overcast clouds
235,Yalta,UA,44.5,34.1667,55.62,83,29,11.7,scattered clouds
236,Gimbi,ET,9.1667,35.8333,60.96,29,6,0.67,clear sky
237,Neyshabur,IR,36.2133,58.7958,50.02,31,1,3.98,clear sky
238,Magadan,RU,59.5667,150.8,8.24,91,97,5.79,overcast clouds
239,Mastung,PK,29.7994,66.845,45.25,16,19,1.7,few clouds
240,Sur,OM,22.5667,59.5289,73.13,54,0,6.44,clear sky
241,Kruisfontein,ZA,-34.0033,24.7314,75.88,83,30,4.27,scattered clouds
242,Lebu,CL,-37.6167,-73.65,61.83,74,37,11.97,scattered clouds
243,Geraldton,AU,-28.7667,114.6,68.13,77,90,4.61,overcast clouds
244,San Quintin,MX,30.4833,-115.95,60.15,54,8,12.48,clear sky
245,Airai,TL,-8.9266,125.4092,61.56,90,99,0.67,overcast clouds
246,Floriano,BR,-6.7669,-43.0225,90.43,54,55,2.01,broken clouds
247,Zhigansk,RU,66.7697,123.3711,-6.81,96,100,17.22,overcast clouds
248,Pestretsy,RU,55.7531,49.6545,12.34,90,6,10.22,clear sky
249,Carnarvon,AU,-24.8667,113.6333,71.67,78,0,19.57,clear sky
250,Aswan,EG,24.0934,32.907,74.19,36,96,9.8,overcast clouds
251,Hofn,IS,64.2539,-15.2082,32.02,74,0,6.91,clear sky
252,Berlevag,NO,70.8578,29.0864,24.8,74,0,12.66,clear sky
253,Henties Bay,NA,-22.116,14.2845,62.85,76,5,8.46,clear sky
254,Qaanaaq,GL,77.484,-69.3632,0.99,75,97,6.08,overcast clouds
255,Najran,SA,17.4924,44.1277,57.85,30,1,4.97,clear sky
256,Chernogolovka,RU,56.0,38.3667,10.22,93,6,7.2,clear sky
257,Fukuma,JP,33.7667,130.4667,51.04,75,6,3.62,clear sky
258,Kargil,IN,34.5667,76.1,5.34,66,2,3.15,clear sky
259,Hovd,MN,48.0056,91.6419,7.99,66,0,0.78,clear sky
260,Gawler,AU,-34.6,138.7333,58.24,75,12,3.42,few clouds
261,Manzhouli,CN,49.6,117.4333,5.18,80,37,11.12,scattered clouds
262,Adrar,MR,20.5022,-10.0711,77.14,9,96,10.54,overcast clouds
263,Margate,GB,51.3813,1.3862,43.3,78,81,7.0,broken clouds
264,Mackay,AU,-21.15,149.2,73.04,81,3,6.55,clear sky
265,Port-Gentil,GA,-0.7193,8.7815,81.93,74,48,5.08,light rain
266,Katsuura,JP,35.1333,140.3,44.71,77,6,6.4,clear sky
267,Lompoc,US,34.6391,-120.4579,57.78,70,1,6.91,clear sky
268,Asau,RO,46.4333,26.4,40.28,80,100,2.33,light rain
269,Russell,US,32.3502,-85.1999,65.48,97,90,0.0,mist
270,Baykit,RU,61.67,96.37,-21.24,100,48,3.09,scattered clouds
271,San Policarpo,PH,12.1791,125.5072,79.9,87,100,12.91,overcast clouds
272,Progreso,MX,21.2833,-89.6667,87.12,56,10,7.78,clear sky
273,Uchaly,RU,54.2996,59.4521,13.19,88,100,2.8,overcast clouds
274,Cap Malheureux,MU,-19.9842,57.6142,79.29,70,99,3.0,overcast clouds
275,Fuzhou,CN,26.0614,119.3061,62.49,79,74,2.84,broken clouds
276,Ancud,CL,-41.8697,-73.8203,71.42,65,48,8.66,scattered clouds
277,Bathsheba,BB,13.2167,-59.5167,84.81,61,40,19.57,scattered clouds
278,Clyde River,CA,70.4692,-68.5914,-14.75,91,94,4.03,overcast clouds
279,Te Anau,NZ,-45.4167,167.7167,48.63,88,100,2.66,overcast clouds
280,Faanui,PF,-16.4833,-151.75,81.12,66,90,15.59,overcast clouds
281,Torbay,CA,47.6666,-52.7314,29.57,80,85,8.01,overcast clouds
282,Nipawin,CA,53.3668,-104.0009,14.04,79,90,10.36,overcast clouds
283,Novotroitskaya,RU,45.3267,41.5253,44.55,80,7,5.84,clear sky
284,Shenjiamen,CN,29.9576,122.298,55.99,73,0,5.99,clear sky
285,Kodiak,US,57.79,-152.4072,27.91,50,90,9.22,overcast clouds
286,Heron,BE,50.5473,5.0977,36.77,97,100,7.81,light snow
287,Inta,RU,66.0317,60.1659,5.2,95,100,15.23,light snow
288,Arona,ES,28.0996,-16.681,63.12,64,20,28.77,few clouds
289,Anadyr,RU,64.75,177.4833,-14.3,76,75,11.18,mist
290,Iqaluit,CA,63.7506,-68.5145,-8.07,100,76,12.64,broken clouds
291,Arman,RU,59.7,150.1667,6.06,87,96,5.5,overcast clouds
292,Altay,CN,47.8667,88.1167,3.07,65,4,6.49,clear sky
293,Leningradskiy,RU,69.3833,178.4167,-19.12,87,97,19.06,overcast clouds
294,Pacific Grove,US,36.6177,-121.9166,51.1,86,1,1.01,clear sky
295,Skala Fourkas,GR,39.9998,23.3841,54.54,58,38,19.62,scattered clouds
296,Plettenberg Bay,ZA,-34.0527,23.3716,69.55,87,71,1.99,broken clouds
297,Kahului,US,20.8947,-156.47,75.85,87,20,6.91,few clouds
298,Matara,LK,5.9485,80.5353,76.68,87,83,8.99,broken clouds
299,Apatity,RU,67.5641,33.4031,8.58,88,100,4.23,overcast clouds
300,Tiksi,RU,71.6872,128.8694,-4.27,93,100,10.56,overcast clouds
301,Sarangani,PH,5.4033,125.4636,83.05,77,66,13.27,light rain
302,Shar,KZ,49.5886,81.0453,2.28,77,9,11.18,clear sky
303,Kristiansund,NO,63.1115,7.732,32.65,64,0,4.61,clear sky
304,Saint-Augustin,CA,51.226,-58.6502,18.93,43,0,12.37,clear sky
305,Samarai,PG,-10.6167,150.6667,81.3,80,93,16.33,overcast clouds
306,Acapulco,MX,16.8634,-99.8901,84.02,74,40,9.22,scattered clouds
307,Tyazhinskiy,RU,56.116,88.524,7.9,86,97,11.41,overcast clouds
308,Lebowakgomo,ZA,-24.2,29.5,76.1,45,84,4.52,broken clouds
309,Norman Wells,CA,65.282,-126.8329,-2.31,95,51,9.24,broken clouds
310,Port Moresby,PG,-9.4431,147.1797,74.62,100,75,3.44,broken clouds
311,Orange Cove,US,36.6244,-119.3137,49.84,68,61,0.83,broken clouds
312,Pleszew,PL,51.8964,17.7855,30.6,93,10,7.0,clear sky
313,Richards Bay,ZA,-28.783,32.0377,77.56,83,27,13.2,scattered clouds
314,Refojos De Basto,PT,41.5132,-7.9952,53.6,92,84,5.84,broken clouds
315,Aksu,CN,41.1231,80.2644,25.88,59,0,4.7,clear sky
316,Codrington,AU,-38.2667,141.9667,55.18,67,99,12.15,overcast clouds
317,Cabo San Lucas,MX,22.8909,-109.9124,78.1,60,75,11.5,broken clouds
318,Puerto Escondido,MX,15.85,-97.0667,86.83,66,1,6.91,clear sky
319,Sabha,LY,27.0377,14.4283,54.03,41,10,1.95,clear sky
320,Leh,IN,34.1667,77.5833,6.39,61,1,5.01,clear sky
321,Zemio,CF,5.0314,25.1361,81.01,32,76,3.62,broken clouds
322,Qiryat Gat,IL,31.61,34.7642,68.77,40,90,1.74,overcast clouds
323,Lasa,IT,46.6166,10.7002,29.14,93,100,0.11,overcast clouds
324,Changji,CN,44.0167,87.3167,16.59,92,75,4.47,mist
325,Okhotsk,RU,59.3833,143.3,-11.83,85,1,9.46,clear sky
326,Alice Town,BS,25.7167,-79.3,77.11,76,0,9.55,clear sky
327,Killybegs,IE,54.6333,-8.45,47.91,68,96,19.55,overcast clouds
328,Ilulissat,GL,69.2167,-51.1,17.62,38,75,3.44,broken clouds
329,Rawlins,US,41.7911,-107.2387,16.02,83,90,19.57,light snow
330,Vao,NC,-22.6667,167.4833,77.95,85,92,18.01,overcast clouds
331,Odda,NO,60.0691,6.5457,36.77,84,13,8.21,few clouds
332,Haines Junction,CA,60.7522,-137.5108,8.55,85,98,1.14,overcast clouds
333,Anchorage,US,61.2181,-149.9003,25.32,84,90,3.44,light snow
334,Tartagal,AR,-22.5164,-63.8013,96.94,38,100,1.97,overcast clouds
335,Kutum,SD,14.2,24.6667,71.58,17,1,7.05,clear sky
336,Butaritari,KI,3.0707,172.7902,81.79,77,97,11.7,light rain
337,Ayan,RU,56.45,138.1667,9.23,63,82,8.59,broken clouds
338,Glendive,US,47.1053,-104.7125,30.83,83,1,0.0,clear sky
339,North Platte,US,41.1239,-100.7654,30.09,77,90,8.01,snow
340,Pangnirtung,CA,66.1451,-65.7125,3.2,92,90,5.75,light snow
341,Alofi,NU,-19.0595,-169.9187,76.23,81,100,13.27,light rain
342,Yulara,AU,-25.2406,130.9889,73.24,27,15,8.05,few clouds
343,Liwale,TZ,-9.7667,37.9333,76.44,65,59,6.93,broken clouds
344,Gohpur,IN,26.8833,93.6333,64.67,69,17,2.33,few clouds
345,Dawei,MM,14.0833,98.2,71.96,76,0,4.74,clear sky
346,Ostra,IT,43.6139,13.1582,46.27,69,98,4.61,overcast clouds
347,Victoria,HK,22.2855,114.1577,70.25,77,71,11.01,broken clouds
348,Atar,MR,20.5169,-13.0499,82.96,9,63,12.15,broken clouds
349,Aripuana,BR,-9.1667,-60.6333,83.16,71,95,4.68,overcast clouds
350,Lake Charles,US,30.2131,-93.2044,80.58,85,90,20.71,overcast clouds
351,Catamarca,AR,-28.4696,-65.7852,79.05,55,86,5.39,overcast clouds
352,Port Hardy,CA,50.6996,-127.4199,45.75,93,90,9.22,light rain
353,Oranjemund,NA,-28.55,16.4333,65.93,78,0,11.05,clear sky
354,Hithadhoo,MV,-0.6,73.0833,81.5,80,93,10.31,overcast clouds
355,Puerto Carreno,CO,6.189,-67.4859,93.07,41,77,13.33,broken clouds
356,Hobyo,SO,5.3505,48.5268,78.89,71,45,18.99,scattered clouds
357,Laurinburg,US,34.7741,-79.4628,55.74,69,90,0.0,overcast clouds
358,Mokolo,CM,10.7398,13.8019,76.82,18,29,4.54,scattered clouds
359,Tigil,RU,57.8,158.6667,22.06,97,100,2.53,light snow
360,Oriximina,BR,-1.7656,-55.8661,90.01,53,70,3.62,broken clouds
361,Rawson,AR,-43.3002,-65.1023,81.72,27,0,19.84,clear sky
362,Sao Filipe,CV,14.8961,-24.4956,76.46,65,24,8.61,few clouds
363,Lashio,MM,22.9333,97.75,59.14,98,7,0.94,clear sky
364,Tshane,BW,-24.0196,21.8684,81.34,41,100,13.49,light rain
365,Ocos,GT,14.5094,-92.1933,93.72,73,10,5.44,clear sky
366,Pevek,RU,69.7008,170.3133,-30.15,98,99,2.98,overcast clouds
367,Mahajanga,MG,-15.7167,46.3167,82.42,74,20,9.22,few clouds
368,Iracoubo,GF,5.4802,-53.2011,77.97,90,100,9.48,moderate rain
369,Shalinskoye,RU,55.7228,93.7594,8.56,88,100,12.82,overcast clouds
370,Buzmeyin,TM,38.0507,58.2056,49.73,76,75,6.91,broken clouds
371,Broome,US,42.2506,-75.833,43.21,70,90,3.0,overcast clouds
372,Snihurivka,UA,47.0758,32.8052,47.52,86,100,14.12,overcast clouds
373,Nurota,UZ,40.5614,65.6886,42.89,31,1,16.13,clear sky
374,Algiers,DZ,36.7525,3.042,57.02,67,75,10.36,broken clouds
375,Marawi,PH,7.9986,124.2928,68.65,97,100,0.69,overcast clouds
376,Khandyga,RU,62.6667,135.6,-9.06,99,100,2.48,overcast clouds
377,Vestmannaeyjar,IS,63.4427,-20.2734,38.39,93,0,11.5,clear sky
378,Beringovskiy,RU,63.05,179.3167,-14.76,95,86,7.99,overcast clouds
379,Norilsk,RU,69.3535,88.2027,-30.08,98,83,6.64,broken clouds
380,Solnechnyy,RU,50.7214,136.6319,20.35,95,100,4.38,light snow
381,Palmas Bellas,PA,9.2319,-80.0867,89.51,68,3,14.2,clear sky
382,Kawalu,ID,-7.3817,108.2082,74.03,97,99,1.07,overcast clouds
383,Walvis Bay,NA,-22.9575,14.5053,70.75,60,22,10.36,few clouds
384,Los Llanos De Aridane,ES,28.6585,-17.9182,65.12,68,75,15.99,broken clouds
385,Nantucket,US,41.2835,-70.0995,48.34,66,90,6.91,overcast clouds
386,Beira,MZ,-19.8436,34.8389,82.49,78,20,11.5,few clouds
387,Ruwi,OM,23.5996,58.5507,73.09,51,70,5.1,broken clouds
388,Naze,JP,28.3667,129.4833,62.76,64,16,7.25,few clouds
389,Mahibadhoo,MV,3.7833,72.9667,80.89,77,92,11.32,overcast clouds
390,Kilindoni,TZ,-7.9139,39.6668,81.14,76,7,12.24,clear sky
391,Vanimo,PG,-2.6741,141.3028,79.56,89,100,7.7,overcast clouds
392,Voh,NC,-20.9667,164.7,78.4,85,100,4.5,overcast clouds
393,Camacha,PT,33.0833,-16.3333,64.53,68,40,16.11,scattered clouds
394,Antofagasta,CL,-23.65,-70.4,65.48,63,54,8.57,broken clouds
395,Seoul,KR,37.5683,126.9778,40.44,93,40,2.3,fog
396,Sanchursk,RU,56.9413,47.2499,-0.76,97,27,6.02,scattered clouds
397,Augustow,PL,53.8432,22.9798,32.94,99,100,7.94,light snow
398,Havoysund,NO,70.9963,24.6622,30.43,81,100,11.01,overcast clouds
399,Kudahuvadhoo,MV,2.6708,72.8944,82.17,78,83,16.02,broken clouds
400,Kuah,MY,6.3265,99.8432,80.58,83,20,3.44,few clouds
401,Energetik,RU,51.7445,58.7934,12.96,91,97,3.87,overcast clouds
402,Belmonte,BR,-15.8631,-38.8828,77.0,90,99,5.39,overcast clouds
403,Kazerun,IR,29.6195,51.6541,59.13,47,99,2.15,overcast clouds
404,Ostrovnoy,RU,68.0531,39.5131,17.6,77,89,20.76,overcast clouds
405,Hyeres,FR,43.1167,6.1167,49.75,57,0,18.41,clear sky
406,Tshikapa,CD,-6.4167,20.8,73.36,93,94,2.44,overcast clouds
407,Saint-Pierre,RE,-21.3393,55.4781,78.48,69,0,19.57,clear sky
408,Akureyri,IS,65.6835,-18.0878,19.33,100,0,3.44,clear sky
409,Obama,JP,35.4958,135.746,51.4,81,18,4.41,few clouds
410,Bandarbeyla,SO,9.4942,50.8122,77.05,71,10,20.38,clear sky
411,Port Augusta,AU,-32.5,137.7667,53.74,57,5,5.95,clear sky
412,Thinadhoo,MV,0.5333,72.9333,81.41,79,100,9.08,overcast clouds
413,Yambio,SS,4.5721,28.3955,81.03,36,79,4.25,broken clouds
414,Mosetse,BW,-20.75,26.65,82.0,39,72,9.75,broken clouds
415,Ulaanbaatar,MN,47.9077,106.8832,-0.27,85,75,0.0,broken clouds
416,Deputatskiy,RU,69.3,139.9,-20.6,91,99,1.74,overcast clouds
417,Wajir,KE,1.7471,40.0573,85.93,31,15,8.39,few clouds
418,Beyla,GN,8.6833,-8.6333,88.79,26,78,4.07,broken clouds
419,Sault Sainte Marie,CA,46.5168,-84.3333,37.69,64,75,8.05,broken clouds
420,Nabire,ID,-3.3667,135.4833,76.69,89,60,3.27,broken clouds
421,Coroata,BR,-4.13,-44.1242,87.73,62,93,2.55,overcast clouds
422,Ambilobe,MG,-13.2,49.05,79.74,67,100,3.2,overcast clouds
423,Krivosheino,RU,57.3431,83.9261,11.39,93,100,10.74,overcast clouds
424,San Carlos,VE,9.6612,-68.5827,94.24,34,86,2.42,overcast clouds
425,Vestmanna,FO,62.1564,-7.1664,34.72,93,50,2.3,scattered clouds
426,Ardakan,IR,32.31,54.0175,53.98,31,12,3.44,few clouds
427,Vallenar,CL,-28.5708,-70.7581,78.75,30,11,11.92,few clouds
428,Amapa,BR,1.0,-52.0,81.07,91,99,3.89,light rain
429,Cairns,AU,-16.9167,145.7667,75.15,92,76,1.14,broken clouds
430,Tezu,IN,27.9167,96.1667,62.11,51,0,3.85,clear sky
431,Kuytun,RU,54.3419,101.5036,9.28,83,100,13.2,overcast clouds
432,Singkang,MY,2.1006,102.7994,76.89,94,95,2.98,overcast clouds
433,Ambatondrazaka,MG,-17.8333,48.4167,69.6,82,89,7.92,overcast clouds
434,Buala,SB,-8.145,159.5921,80.04,86,100,6.98,overcast clouds
435,Omsukchan,RU,62.5333,155.8,-26.72,75,2,2.73,clear sky
436,Kyren,RU,51.6828,102.1408,3.69,76,95,3.58,overcast clouds
437,Kerrobert,CA,51.9168,-109.1348,19.6,77,40,9.71,scattered clouds
438,Sitka,US,57.0531,-135.33,39.09,70,90,19.57,light rain
439,Kavaratti,IN,10.5669,72.642,82.33,75,11,5.79,few clouds
440,Waynesville,US,35.4887,-82.9887,62.85,94,89,3.0,overcast clouds
441,Muravlenko,RU,63.7898,74.523,17.67,95,100,16.13,light snow
442,Kintampo,GH,8.0563,-1.7306,91.62,15,64,3.56,broken clouds
443,Shingu,JP,33.7333,135.9833,48.92,83,0,5.91,clear sky
444,Buri,BR,-23.7975,-48.5928,86.67,25,0,4.43,clear sky
445,Bestobe,KZ,52.4994,73.0975,12.72,71,27,8.37,scattered clouds
446,Kijabe,KE,-0.933,36.5758,61.41,85,93,10.0,overcast clouds
447,San Patricio,US,28.017,-97.5169,86.09,63,26,23.42,scattered clouds
448,La Rochelle,FR,46.1667,-1.15,48.87,76,90,16.11,overcast clouds
449,Mount Isa,AU,-20.7333,139.5,71.37,16,0,8.05,clear sky
450,Yate,GB,51.5407,-2.4184,43.12,83,26,1.01,scattered clouds
451,Maningrida,AU,-12.0667,134.2667,75.83,87,100,5.68,overcast clouds
452,Castelo Branco,PT,39.8222,-7.4909,60.01,72,97,11.07,overcast clouds
453,Mortara,IT,45.2473,8.7355,38.71,87,100,5.26,overcast clouds
454,Nizhniy Odes,RU,63.6445,54.856,14.22,91,95,10.51,overcast clouds
455,Iquique,CL,-20.2208,-70.1431,71.64,64,100,4.47,overcast clouds
456,Saran,FR,47.9501,1.876,41.47,87,82,6.91,broken clouds
457,Ishinomaki,JP,38.4167,141.3,42.67,82,82,3.56,broken clouds
458,Ceres,US,37.5949,-120.9577,49.68,93,33,6.87,scattered clouds
459,Jalu,LY,29.0331,21.5482,58.73,26,1,7.05,clear sky
460,Katima Mulilo,NA,-17.5,24.2667,79.45,49,86,6.82,overcast clouds
461,Bardiyah,LY,31.7561,25.0865,64.24,46,0,6.15,clear sky
462,Prachuap Khiri Khan,TH,12.2167,99.75,69.39,83,1,3.53,clear sky
463,Egvekinot,RU,66.3167,-179.1667,-20.18,81,19,6.67,few clouds
464,Olafsvik,IS,64.8945,-23.7142,35.19,77,46,8.37,scattered clouds
465,Fagersta,SE,60.0042,15.7932,34.39,99,100,7.09,light snow
466,Yorosso,ML,12.3536,-4.7761,90.5,7,30,8.28,scattered clouds
467,Dudinka,RU,69.4058,86.1778,-30.68,98,93,5.59,overcast clouds
468,Santa Luzia,BR,-19.7697,-43.8514,93.34,41,75,4.61,broken clouds
469,Elizabeth City,US,36.2946,-76.2511,66.0,78,90,5.75,overcast clouds
470,Rudraprayag,IN,30.2833,78.9833,49.77,40,0,4.83,clear sky
471,Cuiluan,CN,47.72,128.648,8.56,97,78,2.51,broken clouds
472,Diamantino,BR,-14.4086,-56.4461,91.4,51,53,1.57,broken clouds
473,Catuday,PH,16.2923,119.8062,75.33,73,54,8.79,broken clouds
474,Bahia Blanca,AR,-38.7196,-62.2724,78.06,49,77,9.31,broken clouds
475,Beni,CD,0.5,29.4667,68.38,89,100,1.63,moderate rain
476,Westport,US,41.1415,-73.3579,53.74,71,90,3.0,overcast clouds
477,La Rioja,ES,42.25,-2.5,45.05,86,100,17.96,overcast clouds
478,Kapit,MY,2.0167,112.9333,74.41,100,100,1.57,overcast clouds
479,Port Lincoln,AU,-34.7333,135.8667,56.93,79,81,13.0,broken clouds
480,Bulolo,PG,-7.2,146.65,70.27,93,100,3.29,light rain
481,Am Timan,TD,11.0297,20.2827,83.44,15,6,4.97,clear sky
482,Nizhniy Kuranakh,RU,58.8353,125.4869,-10.61,95,82,2.95,broken clouds
483,Manaus,BR,-3.1019,-60.025,88.29,70,40,3.44,scattered clouds
484,Brovary,UA,50.5,30.7667,46.85,98,75,17.9,broken clouds
485,Namibe,AO,-15.1961,12.1522,72.86,68,24,14.65,few clouds
486,Tessalit,ML,20.1986,1.0114,75.81,6,100,9.51,overcast clouds
487,Viedma,AR,-40.8135,-62.9967,83.52,31,15,10.63,few clouds
488,Katobu,ID,-4.9408,122.5276,77.18,91,99,3.42,overcast clouds
489,Maralal,KE,1.0968,36.698,60.69,73,50,10.42,scattered clouds
490,Saint George,US,37.1041,-113.5841,44.64,44,1,13.0,clear sky
491,Isangel,VU,-19.55,169.2667,78.76,86,58,7.67,broken clouds
492,Assemini,IT,39.2915,9.0015,55.04,69,20,1.99,light rain
493,Mitsamiouli,KM,-11.3847,43.2844,80.15,73,3,11.18,clear sky
494,Lake Cowichan,CA,48.825,-124.0546,40.78,95,100,2.15,light snow
495,Rochester,US,43.1548,-77.6156,47.35,65,75,3.0,broken clouds
496,College,US,64.8569,-147.8028,15.75,80,90,6.91,light snow
497,Yar-Sale,RU,66.8333,70.8333,13.96,96,100,7.58,light snow
498,Touros,BR,-5.1989,-35.4608,88.7,63,89,15.03,overcast clouds
499,Inyonga,TZ,-6.7167,32.0667,74.52,49,69,2.08,broken clouds
500,Wattegama,LK,6.7989,81.4808,74.25,90,80,4.45,broken clouds
501,Mont-De-Marsan,FR,44.0,-0.6667,51.44,94,90,9.22,overcast clouds
502,Coahuayana,MX,18.7333,-103.6833,87.28,41,49,1.92,scattered clouds
503,Qaqortoq,GL,60.7167,-46.0333,34.3,61,100,10.36,overcast clouds
504,Hervey Bay,AU,-25.2986,152.8535,74.01,89,3,1.01,clear sky
505,Andenes,NO,69.3143,16.1194,28.38,74,0,8.05,clear sky
506,Along,IN,28.1667,94.7667,53.89,90,11,1.97,few clouds
507,Axim,GH,4.8699,-2.2405,82.8,72,86,10.65,overcast clouds
508,Kirakira,SB,-10.4544,161.9205,80.4,85,100,5.7,overcast clouds
509,Lewistown,US,40.5992,-77.5714,49.84,55,75,0.0,broken clouds
510,Vrangel,RU,42.7297,133.0839,39.45,86,41,10.04,scattered clouds
511,Misratah,LY,32.3754,15.0925,62.19,34,0,9.42,clear sky
512,Tomatlan,MX,19.9333,-105.25,86.83,24,49,2.42,scattered clouds
513,Omboue,GA,-1.5746,9.2618,79.97,84,80,5.14,light rain
514,Longonjo,AO,-12.9067,15.2533,66.58,94,89,1.57,moderate rain
515,Lago Da Pedra,BR,-4.3333,-45.1667,90.7,53,56,4.14,broken clouds
516,Chingirlau,KZ,51.095,54.0814,27.27,86,100,8.7,overcast clouds
517,Ixtapa,MX,20.7,-105.2,74.43,53,40,5.75,scattered clouds
518,La Ronge,CA,55.1001,-105.2842,16.05,79,75,9.22,light snow
519,Ryotsu,JP,38.0833,138.4333,50.85,76,39,6.42,scattered clouds
520,Biak,ID,-0.9131,122.8766,77.49,81,91,3.15,overcast clouds
521,Talcahuano,CL,-36.7167,-73.1167,60.48,77,90,14.97,overcast clouds
522,Amahai,ID,-3.3333,128.9167,79.41,83,85,4.07,overcast clouds
523,Sibolga,ID,1.7427,98.7792,76.28,89,100,2.62,overcast clouds
524,Bada,RU,51.392,109.8717,7.66,86,100,7.56,overcast clouds
525,Balkhash,KZ,46.844,74.9804,19.26,47,0,13.96,clear sky
526,Sullana,PE,-4.9039,-80.6853,82.83,49,80,5.44,broken clouds
527,Coquimbo,CL,-29.9533,-71.3436,62.33,82,90,12.66,overcast clouds
528,Jiaonan,CN,35.8786,119.9753,35.62,68,100,6.67,overcast clouds
529,Zhireken,RU,52.8249,117.3076,-6.36,99,30,2.75,scattered clouds
530,Congonhas,BR,-20.4997,-43.8578,91.81,45,6,7.76,clear sky
531,Ayagoz,KZ,47.9714,80.4392,-0.4,78,8,6.33,clear sky
532,Bulgan,MN,48.8125,103.5347,9.84,43,44,6.71,scattered clouds
533,Siloam Springs,US,36.1881,-94.5405,70.25,86,40,5.99,scattered clouds
534,Svetlyy,RU,54.675,20.1347,33.85,97,100,9.84,overcast clouds
535,Honolulu,US,21.3069,-157.8583,75.02,75,40,3.0,scattered clouds
536,Salinopolis,BR,-0.6136,-47.3561,81.72,85,92,11.9,overcast clouds
537,Nkoteng,CM,4.5167,12.0333,77.14,47,45,3.87,scattered clouds
538,Limbuhan,PH,11.8838,124.0501,79.36,88,100,17.58,overcast clouds
539,Lao Cai,VN,22.4833,103.95,65.97,90,82,0.58,broken clouds
540,Skelleftea,SE,64.7507,20.9528,25.16,69,90,1.14,light snow
541,Krasnoselkup,RU,65.7,82.4667,0.84,87,100,15.26,overcast clouds
542,Rio Grande,BR,-32.035,-52.0986,77.11,60,49,11.88,scattered clouds
543,Kankon,IN,15.0167,74.0167,81.59,65,44,6.42,scattered clouds
544,Parana,AR,-31.732,-60.5238,83.3,67,100,5.53,overcast clouds
545,Sorong,ID,-0.8833,131.25,81.12,82,100,5.35,overcast clouds
546,Safaga,EG,26.7292,33.9365,70.3,55,100,4.29,overcast clouds
547,Santa Barbara,US,34.7333,-120.0343,53.35,88,100,5.95,overcast clouds
548,Ranot,TH,7.7777,100.3213,79.43,74,100,12.68,overcast clouds
549,Lavrentiya,RU,65.5833,-171.0,-9.13,81,94,10.49,overcast clouds
550,Elliot,ZA,-31.3333,27.85,64.29,68,74,15.37,light rain
551,Gram,DK,55.2895,9.0491,37.44,87,75,2.3,broken clouds
552,Tecklenburg,DE,52.2167,7.8333,35.35,86,0,2.3,clear sky
553,Evensk,RU,61.95,159.2333,-22.09,82,95,6.11,overcast clouds
554,Sayyan,YE,15.1718,44.3244,47.93,27,0,5.41,clear sky
555,Nadadores,MX,27.05,-101.6,89.24,31,40,4.61,scattered clouds
556,Golfito,CR,8.639,-83.166,85.15,64,5,4.47,clear sky
557,Emirdag,TR,39.0197,31.15,45.34,68,94,7.02,overcast clouds
558,Yanam,IN,16.7333,82.2167,77.4,84,0,5.35,light rain
559,Comodoro Rivadavia,AR,-45.8667,-67.5,62.46,72,20,9.22,few clouds
560,Nanortalik,GL,60.1432,-45.2371,27.88,76,100,7.58,overcast clouds
561,Santiago,CL,-33.4569,-70.6483,79.18,35,0,6.91,clear sky
562,Merauke,ID,-8.4667,140.3333,80.1,85,97,9.84,overcast clouds
563,Arlit,NE,18.7369,7.3853,73.67,7,94,4.76,overcast clouds
564,Caravelas,BR,-17.7125,-39.2481,77.31,83,92,5.84,overcast clouds
565,Businga,CD,3.3333,20.8833,80.26,42,99,1.7,overcast clouds
566,Kimbe,PG,-5.5502,150.1429,77.22,93,99,2.8,light rain
567,Gaoua,BF,10.2992,-3.2508,91.98,10,50,3.8,scattered clouds
568,Betanzos,ES,43.2804,-8.2147,56.66,78,40,1.01,scattered clouds
569,Savannah Bight,HN,16.45,-85.85,84.25,71,100,17.22,overcast clouds
570,Kodinsk,RU,58.6881,99.1844,2.14,92,100,10.09,overcast clouds
571,Petropavlovsk-Kamchatskiy,RU,53.0452,158.6483,21.79,93,20,6.71,few clouds
572,Waddan,LY,29.1614,16.139,53.65,41,0,1.16,clear sky
573,Bilma,NE,18.6853,12.9164,70.68,8,85,12.06,overcast clouds
574,Kiomboi,TZ,-4.2667,34.3667,72.93,49,75,6.8,broken clouds
575,Ushtobe,KZ,45.2514,77.9838,25.07,57,0,14.85,clear sky
576,Urumqi,CN,43.801,87.6005,13.15,92,75,4.47,mist
577,Port Blair,IN,11.6667,92.75,79.41,79,3,10.22,clear sky
578,Pitimbu,BR,-7.4706,-34.8086,84.79,68,67,12.41,broken clouds
579,Chicama,PE,-7.8447,-79.1469,63.14,69,98,6.76,overcast clouds
580,Cedar City,US,37.6775,-113.0619,26.4,89,1,0.0,clear sky
581,Nome,US,64.5011,-165.4064,-15.34,95,29,7.02,scattered clouds
582,Clearwater,US,27.9659,-82.8001,83.1,79,90,1.99,mist
583,Sena Madureira,BR,-9.0656,-68.6569,82.63,76,96,3.89,overcast clouds
584,Kieta,PG,-6.2167,155.6333,79.61,85,100,1.83,light rain
585,Harper,LR,4.375,-7.7169,83.68,70,31,9.46,scattered clouds
586,Hargeysa,SO,9.56,44.065,58.78,77,15,12.97,few clouds
587,General Pico,AR,-35.6566,-63.7568,75.78,59,91,7.76,overcast clouds
588,Kandrian,PG,-6.2167,149.55,78.64,88,100,4.38,light rain
589,Bilibino,RU,68.0546,166.4372,-36.11,99,98,1.41,overcast clouds
590,Batagay-Alyta,RU,67.8006,130.4114,-24.99,91,100,0.72,overcast clouds
591,Ystad,SE,55.4297,13.8204,34.54,98,100,8.75,light snow
592,Kasempa,ZM,-13.4584,25.8338,76.17,42,57,3.51,broken clouds
593,Sterling,US,39.0062,-77.4286,53.02,59,75,1.01,broken clouds
594,Wanlaweyn,SO,2.6185,44.8938,78.21,61,84,17.96,broken clouds
595,Coihaique,CL,-45.5752,-72.0662,77.61,33,20,9.22,few clouds
596,Ajdabiya,LY,30.7554,20.2263,61.2,57,12,8.88,few clouds
597,Slobozia,MD,46.7281,29.7078,52.68,72,85,19.3,overcast clouds
598,Klamath Falls,US,42.2249,-121.7817,27.97,83,1,1.01,clear sky
599,Majene,ID,-3.5403,118.9707,78.49,84,97,3.4,overcast clouds
600,Lorengau,PG,-2.0226,147.2712,83.41,83,44,17.49,scattered clouds
601,Daru,PG,-9.0763,143.2092,79.43,87,55,4.94,broken clouds
602,Maragogi,BR,-9.0122,-35.2225,84.52,63,100,12.77,overcast clouds
603,Djougou,BJ,9.7085,1.666,88.95,14,87,3.85,overcast clouds
604,Roblin,CA,51.23,-101.3565,6.66,92,8,5.14,clear sky
605,Polyarnyy,RU,69.1989,33.4478,10.87,78,100,11.83,overcast clouds
606,Korla,CN,41.7597,86.1469,24.37,56,1,3.96,clear sky
607,Saravan,AM,39.7196,45.6483,29.05,81,53,5.97,broken clouds
608,Lakes Entrance,AU,-37.8811,147.981,56.16,89,87,11.07,light rain
609,Loznica,RS,44.5342,19.2242,38.41,93,86,4.45,overcast clouds
610,Puqi,CN,29.7167,113.8833,55.65,62,8,2.17,clear sky
611,Darhan,MN,49.4867,105.9228,9.23,89,100,3.36,overcast clouds
612,Kaseda,JP,31.4167,130.3167,52.84,77,1,4.45,clear sky
613,Pochutla,MX,15.7432,-96.4661,87.82,51,12,5.01,few clouds
614,Jinchang,CN,38.4953,102.1739,28.47,48,100,9.33,overcast clouds
615,Mgandu,TZ,-5.95,34.1333,73.0,41,79,3.49,broken clouds
616,Orbetello,IT,42.4408,11.2196,46.22,100,90,21.85,fog
617,Prieska,ZA,-29.6641,22.7474,78.4,45,70,21.52,broken clouds
618,Guarenas,VE,10.4674,-66.6066,84.65,55,99,6.17,overcast clouds
619,Ouallam,NE,14.3188,2.0866,83.89,9,18,8.55,few clouds
620,Beloha,MG,-25.1667,45.05,76.35,78,95,10.6,overcast clouds
621,Xai-Xai,MZ,-25.0519,33.6442,79.05,78,100,15.99,overcast clouds
622,Yarmouth,US,41.7057,-70.2286,48.34,79,90,4.0,overcast clouds
623,Kulhudhuffushi,MV,6.6221,73.07,82.56,74,36,8.86,scattered clouds
624,Sorkjosen,NO,69.8,20.9333,23.68,80,99,10.45,overcast clouds
625,Charleville-Mezieres,FR,49.7667,4.7167,38.82,98,100,20.27,light rain
626,Monte Alegre,BR,-2.0078,-54.0692,90.3,50,83,4.09,broken clouds
627,Dunnville,CA,42.9001,-79.6163,49.08,91,100,9.17,overcast clouds
628,Copiapo,CL,-27.3667,-70.3333,64.09,35,15,10.38,few clouds
629,Vila Franca Do Campo,PT,37.7167,-25.4333,68.2,73,90,6.17,overcast clouds
630,Sangar,RU,63.9242,127.4739,-8.91,91,100,11.61,overcast clouds
631,Muriwai Beach,NZ,-36.8167,174.45,66.79,94,48,3.29,scattered clouds
632,Adeje,ES,28.1227,-16.726,67.3,63,20,28.77,few clouds
633,Lethem,GY,3.3803,-59.7968,91.94,47,98,8.66,overcast clouds
634,Canoas,BR,-29.9178,-51.1836,83.57,46,0,16.11,clear sky
635,Portland,US,45.5234,-122.6762,43.47,92,90,1.99,overcast clouds
636,King City,US,36.2127,-121.126,43.68,68,47,2.13,scattered clouds
637,Valparaiso,CL,-33.0393,-71.6273,63.52,85,90,9.22,mist
638,Bubaque,GW,11.2833,-15.8333,81.32,64,100,8.05,overcast clouds
639,Luwuk,ID,-0.9516,122.7875,78.62,82,95,3.78,overcast clouds
640,Usinsk,RU,65.9939,57.5281,2.53,97,99,8.28,overcast clouds
641,Ardino,BG,41.5833,25.1333,48.76,86,99,10.94,overcast clouds
642,Paamiut,GL,61.994,-49.6678,19.38,81,100,10.22,overcast clouds
643,Dakar,SN,14.6937,-17.4441,86.88,65,0,9.22,clear sky
644,Garzon,CO,2.1959,-75.6278,80.46,74,62,2.57,broken clouds
645,Sao Gabriel Da Cachoeira,BR,-0.1303,-67.0892,80.4,89,90,3.44,moderate rain
646,Kralendijk,BQ,12.15,-68.2667,84.18,70,75,17.27,broken clouds
647,Udachnyy,RU,66.4167,112.4,-11.24,95,100,14.65,overcast clouds
648,Pirai Do Sul,BR,-24.5261,-49.9486,79.23,32,0,5.03,clear sky
649,Yibin,CN,28.7667,104.6238,51.62,91,100,2.17,overcast clouds
650,Alvorada,BR,-12.48,-49.1247,81.52,76,100,6.35,overcast clouds
651,Ambon,ID,-3.6954,128.1814,81.41,79,71,5.48,broken clouds
652,Vila,PT,42.0304,-8.1588,45.48,83,95,3.38,overcast clouds
653,Magnitka,RU,55.3475,59.6961,19.69,84,100,1.95,overcast clouds
654,Mont-Dore,NC,-22.2833,166.5833,82.99,99,90,8.52,overcast clouds
655,Vagay,RU,57.9375,69.0217,20.59,78,100,9.33,overcast clouds
656,Praxedis Guerrero,MX,31.3667,-106.0167,60.39,56,58,29.08,broken clouds
657,Cacu,BR,-18.5567,-51.1308,91.54,29,86,4.63,overcast clouds
658,Pangoa,PE,-12.1167,-73.0,75.97,75,100,2.64,overcast clouds
659,Tabas,IR,33.5959,56.9244,57.25,23,1,4.38,clear sky
660,Skovorodino,RU,53.9833,123.9167,3.94,91,100,1.68,overcast clouds
661,Totskoye,RU,52.5248,52.7623,25.83,85,100,9.4,overcast clouds
662,Teya,RU,60.3778,92.6267,-12.42,100,70,4.21,broken clouds
663,Ballina,AU,-28.8667,153.5667,59.77,70,0,8.84,clear sky
664,Praia,CV,14.9215,-23.5087,75.74,64,44,20.71,scattered clouds
665,Asmara,ER,15.3333,38.9333,52.23,83,22,5.53,few clouds
666,Wuwei,CN,37.9281,102.6414,27.86,55,97,7.65,overcast clouds
667,Sioux Lookout,CA,50.1001,-91.917,19.78,86,20,9.22,few clouds
668,Anloga,GH,5.7947,0.8973,83.41,71,57,10.96,broken clouds
669,Tual,ID,-5.6667,132.75,84.16,75,100,18.9,overcast clouds
670,Guerrero,MX,17.6667,-100.0,79.29,37,100,3.62,overcast clouds
671,Kaeo,NZ,-35.1,173.7833,62.33,95,59,3.31,broken clouds
672,Rognedino,RU,53.8015,33.5576,33.08,95,100,15.14,overcast clouds
673,Olga,RU,43.7444,135.2892,37.02,87,100,5.03,overcast clouds
674,Sokoni,TZ,-6.4333,39.55,81.25,77,5,11.65,clear sky
675,Alpena,US,45.0617,-83.4327,37.11,86,90,3.0,overcast clouds
676,Volchikha,RU,52.0333,80.3833,7.92,85,58,6.29,broken clouds
677,Kuching,MY,1.55,110.3333,77.22,100,40,2.3,scattered clouds
678,Qandala,SO,11.472,49.8728,76.32,73,3,7.7,clear sky
679,Nosy Varika,MG,-20.5833,48.5333,78.48,79,100,8.97,overcast clouds
680,Boguchany,RU,58.3814,97.4531,0.97,92,99,8.59,overcast clouds
681,Gushikawa,JP,26.3544,127.8686,67.23,88,90,5.75,overcast clouds
682,Bijie,CN,27.3125,105.2942,41.65,95,100,5.14,overcast clouds
683,Bolshoye Nagatkino,RU,54.5196,47.9679,16.77,82,6,11.63,clear sky
684,Hambantota,LK,6.1241,81.1185,79.25,81,98,15.64,overcast clouds
685,Varna,BG,43.2167,27.9167,54.23,98,75,10.36,light rain
686,Balotra,IN,25.8333,72.2333,65.21,24,50,8.66,scattered clouds
687,Kenai,US,60.5544,-151.2583,26.65,86,90,9.22,light snow
688,Verkhnevilyuysk,RU,63.4453,120.3167,-4.38,96,100,4.94,overcast clouds
689,Sambava,MG,-14.2667,50.1667,77.18,75,98,6.98,overcast clouds
690,Half Moon Bay,US,37.4636,-122.4286,51.89,80,1,0.0,clear sky
691,Tura,IN,25.5198,90.2201,60.82,55,0,1.97,clear sky
692,Pueblo Bello,CO,8.2041,-76.526,85.91,65,31,3.62,scattered clouds
693,Senanga,ZM,-16.1167,23.2667,81.68,39,89,5.12,overcast clouds
694,Suileng,CN,47.25,127.0833,-0.98,99,26,4.72,scattered clouds
695,Sebring,US,27.4956,-81.4409,83.26,75,1,1.99,clear sky
696,Letlhakane,BW,-21.4167,25.5833,84.92,35,60,4.99,broken clouds
697,Salalah,OM,17.0151,54.0924,78.89,69,0,0.0,clear sky
698,Shimoda,JP,34.6667,138.95,54.28,71,91,2.17,overcast clouds
699,Quelimane,MZ,-17.8786,36.8883,84.15,74,20,9.22,few clouds
700,Gorin,RU,51.1983,136.6669,21.25,96,100,4.54,light snow
701,San Lorenzo,PY,-25.3333,-57.5333,97.74,25,0,8.01,clear sky
702,Baruun-Urt,MN,46.6806,113.2792,13.28,91,100,9.86,light snow
703,Kisanga,TZ,-7.4362,37.7034,80.15,67,21,6.96,few clouds
704,Hammerfest,NO,70.6634,23.6821,28.85,69,0,10.36,clear sky
705,Puksoozero,RU,62.5903,40.6066,2.73,97,42,5.01,scattered clouds
706,Abu Dhabi,AE,24.4667,54.3667,73.96,61,0,3.44,clear sky
707,Broken Hill,AU,-31.95,141.4333,62.08,26,14,6.96,few clouds
708,Virovitica,HR,45.8319,17.3839,35.02,90,67,3.18,broken clouds
709,Chocen,CZ,50.0016,16.223,35.17,61,66,13.44,broken clouds
710,Ashqelon,IL,31.6693,34.5715,69.78,50,94,0.54,overcast clouds
711,Olecko,PL,54.0337,22.507,32.83,99,100,9.73,light snow
712,Tiruchchendur,IN,8.4833,78.1167,80.58,79,67,15.82,broken clouds
